[
  {
    "origin": "Hà Nội",
    "destination": "Bắc Ninh",
    "distance_km": 31,
    "estimated_minutes": 45,
    "is_active": true,
    "route_stops": [
      {
        "stop_order": 100,
        "stop_type": "pickup",
        "location": "Bến xe Mỹ Đình",
        "address": "Phạm Hùng, Nam Từ Liêm, Hà Nội",
        "latitude": 21.0285,
        "longitude": 105.7783,
        "offset_minutes": 0,
        "is_active": true
      },
      {
        "stop_order": 200,
        "stop_type": "dropoff",
        "location": "Bến xe Bắc Ninh",
        "address": "Đường Lý Thái Tổ, TP. Bắc Ninh",
        "latitude": 21.1861,
        "longitude": 106.0763,
        "offset_minutes": 45,
        "is_active": true
      }
    ]
  },
  {
    "origin": "Hà Nội",
    "destination": "Thái Nguyên",
    "distance_km": 76,
    "estimated_minutes": 90,
    "is_active": true,
    "route_stops": [
      {
        "stop_order": 100,
        "stop_type": "pickup",
        "location": "Bến xe Giáp Bát",
        "address": "Giải Phóng, Hoàng Mai, Hà Nội",
        "latitude": 20.9831,
        "longitude": 105.8416,
        "offset_minutes": 0,
        "is_active": true
      },
      {
        "stop_order": 200,
        "stop_type": "dropoff",
        "location": "Bến xe Thái Nguyên",
        "address": "Quang Trung, TP. Thái Nguyên",
        "latitude": 21.5671,
        "longitude": 105.8252,
        "offset_minutes": 90,
        "is_active": true
      }
    ]
  },
  {
    "origin": "Hà Nội",
    "destination": "Nam Định",
    "distance_km": 87,
    "estimated_minutes": 120,
    "is_active": true,
    "route_stops": [
      {
        "stop_order": 100,
        "stop_type": "pickup",
        "location": "Bến xe Nước Ngầm",
        "address": "Giải Phóng, Hoàng Mai, Hà Nội",
        "latitude": 20.9819,
        "longitude": 105.8431,
        "offset_minutes": 0,
        "is_active": true
      },
      {
        "stop_order": 200,
        "stop_type": "dropoff",
        "location": "Bến xe Nam Định",
        "address": "Trần Hưng Đạo, TP. Nam Định",
        "latitude": 20.4388,
        "longitude": 106.1621,
        "offset_minutes": 120,
        "is_active": true
      }
    ]
  },
  {
    "origin": "Hà Nội",
    "destination": "Thanh Hóa",
    "distance_km": 150,
    "estimated_minutes": 180,
    "is_active": true,
    "route_stops": [
      {
        "stop_order": 100,
        "stop_type": "pickup",
        "location": "Bến xe Mỹ Đình",
        "address": "Phạm Hùng, Nam Từ Liêm, Hà Nội",
        "latitude": 21.0285,
        "longitude": 105.7783,
        "offset_minutes": 0,
        "is_active": true
      },
      {
        "stop_order": 200,
        "stop_type": "both",
        "location": "Nghỉ chân Ninh Bình",
        "address": "Quốc lộ 1A, Ninh Bình",
        "latitude": 20.2506,
        "longitude": 105.9745,
        "offset_minutes": 90,
        "is_active": true
      },
      {
        "stop_order": 300,
        "stop_type": "dropoff",
        "location": "Bến xe Thanh Hóa",
        "address": "Quang Trung, TP. Thanh Hóa",
        "latitude": 19.8067,
        "longitude": 105.7851,
        "offset_minutes": 180,
        "is_active": true
      }
    ]
  },
  {
    "origin": "Hà Nội",
    "destination": "Nghệ An",
    "distance_km": 290,
    "estimated_minutes": 360,
    "is_active": true,
    "route_stops": [
      {
        "stop_order": 100,
        "stop_type": "pickup",
        "location": "Bến xe Mỹ Đình",
        "address": "Phạm Hùng, Nam Từ Liêm, Hà Nội",
        "latitude": 21.0285,
        "longitude": 105.7783,
        "offset_minutes": 0,
        "is_active": true
      },
      {
        "stop_order": 200,
        "stop_type": "both",
        "location": "Bến xe Thanh Hóa",
        "address": "Quang Trung, TP. Thanh Hóa",
        "latitude": 19.8067,
        "longitude": 105.7851,
        "offset_minutes": 180,
        "is_active": true
      },
      {
        "stop_order": 300,
        "stop_type": "dropoff",
        "location": "Bến xe Vinh",
        "address": "Đường Lê Lợi, TP. Vinh, Nghệ An",
        "latitude": 18.6792,
        "longitude": 105.6813,
        "offset_minutes": 360,
        "is_active": true
      }
    ]
  },
  {
    "origin": "Hà Nội",
    "destination": "Huế",
    "distance_km": 654,
    "estimated_minutes": 720,
    "is_active": true,
    "route_stops": [
      {
        "stop_order": 100,
        "stop_type": "pickup",
        "location": "Bến xe Mỹ Đình",
        "address": "Phạm Hùng, Nam Từ Liêm, Hà Nội",
        "latitude": 21.0285,
        "longitude": 105.7783,
        "offset_minutes": 0,
        "is_active": true
      },
      {
        "stop_order": 200,
        "stop_type": "both",
        "location": "Bến xe Vinh",
        "address": "Đường Lê Lợi, TP. Vinh, Nghệ An",
        "latitude": 18.6792,
        "longitude": 105.6813,
        "offset_minutes": 300,
        "is_active": true
      },
      {
        "stop_order": 300,
        "stop_type": "both",
        "location": "Bến xe Đông Hà",
        "address": "Quốc lộ 1A, TP. Đông Hà, Quảng Trị",
        "latitude": 16.8169,
        "longitude": 107.1003,
        "offset_minutes": 540,
        "is_active": true
      },
      {
        "stop_order": 400,
        "stop_type": "dropoff",
        "location": "Bến xe Huế",
        "address": "An Cựu, TP. Huế",
        "latitude": 16.4637,
        "longitude": 107.5909,
        "offset_minutes": 720,
        "is_active": true
      }
    ]
  },
  {
    "origin": "Hà Nội",
    "destination": "Quảng Bình",
    "distance_km": 485,
    "estimated_minutes": 540,
    "is_active": true,
    "route_stops": [
      {
        "stop_order": 100,
        "stop_type": "pickup",
        "location": "Bến xe Mỹ Đình",
        "address": "Phạm Hùng, Nam Từ Liêm, Hà Nội",
        "latitude": 21.0285,
        "longitude": 105.7783,
        "offset_minutes": 0,
        "is_active": true
      },
      {
        "stop_order": 200,
        "stop_type": "both",
        "location": "Bến xe Vinh",
        "address": "Đường Lê Lợi, TP. Vinh, Nghệ An",
        "latitude": 18.6792,
        "longitude": 105.6813,
        "offset_minutes": 300,
        "is_active": true
      },
      {
        "stop_order": 300,
        "stop_type": "dropoff",
        "location": "Bến xe Đồng Hới",
        "address": "Quang Trung, TP. Đồng Hới, Quảng Bình",
        "latitude": 17.4822,
        "longitude": 106.6228,
        "offset_minutes": 540,
        "is_active": true
      }
    ]
  },
  {
    "origin": "Đà Nẵng",
    "destination": "Huế",
    "distance_km": 102,
    "estimated_minutes": 120,
    "is_active": true,
    "route_stops": [
      {
        "stop_order": 100,
        "stop_type": "pickup",
        "location": "Bến xe Đà Nẵng",
        "address": "Điện Biên Phủ, Thanh Khê, Đà Nẵng",
        "latitude": 16.0545,
        "longitude": 108.2022,
        "offset_minutes": 0,
        "is_active": true
      },
      {
        "stop_order": 200,
        "stop_type": "dropoff",
        "location": "Bến xe Huế",
        "address": "An Cựu, TP. Huế",
        "latitude": 16.4637,
        "longitude": 107.5909,
        "offset_minutes": 120,
        "is_active": true
      }
    ]
  },
  {
    "origin": "Đà Nẵng",
    "destination": "Quảng Nam",
    "distance_km": 35,
    "estimated_minutes": 45,
    "is_active": true,
    "route_stops": [
      {
        "stop_order": 100,
        "stop_type": "pickup",
        "location": "Bến xe Đà Nẵng",
        "address": "Điện Biên Phủ, Thanh Khê, Đà Nẵng",
        "latitude": 16.0545,
        "longitude": 108.2022,
        "offset_minutes": 0,
        "is_active": true
      },
      {
        "stop_order": 200,
        "stop_type": "dropoff",
        "location": "Bến xe Tam Kỳ",
        "address": "Phan Chu Trinh, TP. Tam Kỳ, Quảng Nam",
        "latitude": 15.5735,
        "longitude": 108.4742,
        "offset_minutes": 45,
        "is_active": true
      }
    ]
  },
  {
    "origin": "Đà Nẵng",
    "destination": "Quảng Ngãi",
    "distance_km": 125,
    "estimated_minutes": 150,
    "is_active": true,
    "route_stops": [
      {
        "stop_order": 100,
        "stop_type": "pickup",
        "location": "Bến xe Đà Nẵng",
        "address": "Điện Biên Phủ, Thanh Khê, Đà Nẵng",
        "latitude": 16.0545,
        "longitude": 108.2022,
        "offset_minutes": 0,
        "is_active": true
      },
      {
        "stop_order": 200,
        "stop_type": "dropoff",
        "location": "Bến xe Quảng Ngãi",
        "address": "Quang Trung, TP. Quảng Ngãi",
        "latitude": 15.1214,
        "longitude": 108.8044,
        "offset_minutes": 150,
        "is_active": true
      }
    ]
  },
  {
    "origin": "Đà Nẵng",
    "destination": "Bình Định",
    "distance_km": 300,
    "estimated_minutes": 360,
    "is_active": true,
    "route_stops": [
      {
        "stop_order": 100,
        "stop_type": "pickup",
        "location": "Bến xe Đà Nẵng",
        "address": "Điện Biên Phủ, Thanh Khê, Đà Nẵng",
        "latitude": 16.0545,
        "longitude": 108.2022,
        "offset_minutes": 0,
        "is_active": true
      },
      {
        "stop_order": 200,
        "stop_type": "both",
        "location": "Bến xe Quảng Ngãi",
        "address": "Quang Trung, TP. Quảng Ngãi",
        "latitude": 15.1214,
        "longitude": 108.8044,
        "offset_minutes": 150,
        "is_active": true
      },
      {
        "stop_order": 300,
        "stop_type": "dropoff",
        "location": "Bến xe Quy Nhơn",
        "address": "Tây Sơn, TP. Quy Nhơn, Bình Định",
        "latitude": 13.7563,
        "longitude": 109.2176,
        "offset_minutes": 360,
        "is_active": true
      }
    ]
  },
  {
    "origin": "Đà Nẵng",
    "destination": "Phú Yên",
    "distance_km": 412,
    "estimated_minutes": 480,
    "is_active": true,
    "route_stops": [
      {
        "stop_order": 100,
        "stop_type": "pickup",
        "location": "Bến xe Đà Nẵng",
        "address": "Điện Biên Phủ, Thanh Khê, Đà Nẵng",
        "latitude": 16.0545,
        "longitude": 108.2022,
        "offset_minutes": 0,
        "is_active": true
      },
      {
        "stop_order": 200,
        "stop_type": "both",
        "location": "Bến xe Quy Nhơn",
        "address": "Tây Sơn, TP. Quy Nhơn, Bình Định",
        "latitude": 13.7563,
        "longitude": 109.2176,
        "offset_minutes": 360,
        "is_active": true
      },
      {
        "stop_order": 300,
        "stop_type": "dropoff",
        "location": "Bến xe Tuy Hòa",
        "address": "Trần Hưng Đạo, TP. Tuy Hòa, Phú Yên",
        "latitude": 13.0948,
        "longitude": 109.2958,
        "offset_minutes": 480,
        "is_active": true
      }
    ]
  },
  {
    "origin": "TP. Hồ Chí Minh",
    "destination": "Vũng Tàu",
    "distance_km": 125,
    "estimated_minutes": 150,
    "is_active": true,
    "route_stops": [
      {
        "stop_order": 100,
        "stop_type": "pickup",
        "location": "Bến xe Miền Đông",
        "address": "Đinh Bộ Lĩnh, Bình Thạnh, TP.HCM",
        "latitude": 10.8142,
        "longitude": 106.7106,
        "offset_minutes": 0,
        "is_active": true
      },
      {
        "stop_order": 200,
        "stop_type": "dropoff",
        "location": "Bến xe Vũng Tàu",
        "address": "Nam Kỳ Khởi Nghĩa, TP. Vũng Tàu",
        "latitude": 10.3459,
        "longitude": 107.0843,
        "offset_minutes": 150,
        "is_active": true
      }
    ]
  },
  {
    "origin": "TP. Hồ Chí Minh",
    "destination": "Bình Dương",
    "distance_km": 30,
    "estimated_minutes": 45,
    "is_active": true,
    "route_stops": [
      {
        "stop_order": 100,
        "stop_type": "pickup",
        "location": "Bến xe Miền Đông",
        "address": "Đinh Bộ Lĩnh, Bình Thạnh, TP.HCM",
        "latitude": 10.8142,
        "longitude": 106.7106,
        "offset_minutes": 0,
        "is_active": true
      },
      {
        "stop_order": 200,
        "stop_type": "dropoff",
        "location": "Bến xe Thủ Dầu Một",
        "address": "Yersin, TP. Thủ Dầu Một, Bình Dương",
        "latitude": 10.9804,
        "longitude": 106.6519,
        "offset_minutes": 45,
        "is_active": true
      }
    ]
  },
  {
    "origin": "TP. Hồ Chí Minh",
    "destination": "Tây Ninh",
    "distance_km": 99,
    "estimated_minutes": 120,
    "is_active": true,
    "route_stops": [
      {
        "stop_order": 100,
        "stop_type": "pickup",
        "location": "Bến xe Miền Tây",
        "address": "Kinh Dương Vương, Bình Tân, TP.HCM",
        "latitude": 10.7379,
        "longitude": 106.6063,
        "offset_minutes": 0,
        "is_active": true
      },
      {
        "stop_order": 200,
        "stop_type": "dropoff",
        "location": "Bến xe Tây Ninh",
        "address": "Trần Hưng Đạo, TP. Tây Ninh",
        "latitude": 11.3351,
        "longitude": 106.1099,
        "offset_minutes": 120,
        "is_active": true
      }
    ]
  },
  {
    "origin": "TP. Hồ Chí Minh",
    "destination": "Bình Phước",
    "distance_km": 120,
    "estimated_minutes": 150,
    "is_active": true,
    "route_stops": [
      {
        "stop_order": 100,
        "stop_type": "pickup",
        "location": "Bến xe Miền Đông",
        "address": "Đinh Bộ Lĩnh, Bình Thạnh, TP.HCM",
        "latitude": 10.8142,
        "longitude": 106.7106,
        "offset_minutes": 0,
        "is_active": true
      },
      {
        "stop_order": 200,
        "stop_type": "dropoff",
        "location": "Bến xe Đồng Xoài",
        "address": "Hùng Vương, TX. Đồng Xoài, Bình Phước",
        "latitude": 11.5263,
        "longitude": 106.8938,
        "offset_minutes": 150,
        "is_active": true
      }
    ]
  },
  {
    "origin": "TP. Hồ Chí Minh",
    "destination": "Long An",
    "distance_km": 65,
    "estimated_minutes": 90,
    "is_active": true,
    "route_stops": [
      {
        "stop_order": 100,
        "stop_type": "pickup",
        "location": "Bến xe Miền Tây",
        "address": "Kinh Dương Vương, Bình Tân, TP.HCM",
        "latitude": 10.7379,
        "longitude": 106.6063,
        "offset_minutes": 0,
        "is_active": true
      },
      {
        "stop_order": 200,
        "stop_type": "dropoff",
        "location": "Bến xe Tân An",
        "address": "Hùng Vương, TP. Tân An, Long An",
        "latitude": 10.5359,
        "longitude": 106.4053,
        "offset_minutes": 90,
        "is_active": true
      }
    ]
  },
  {
    "origin": "TP. Hồ Chí Minh",
    "destination": "Tiền Giang",
    "distance_km": 72,
    "estimated_minutes": 90,
    "is_active": true,
    "route_stops": [
      {
        "stop_order": 100,
        "stop_type": "pickup",
        "location": "Bến xe Miền Tây",
        "address": "Kinh Dương Vương, Bình Tân, TP.HCM",
        "latitude": 10.7379,
        "longitude": 106.6063,
        "offset_minutes": 0,
        "is_active": true
      },
      {
        "stop_order": 200,
        "stop_type": "dropoff",
        "location": "Bến xe Mỹ Tho",
        "address": "Ấp Bắc, TP. Mỹ Tho, Tiền Giang",
        "latitude": 10.3599,
        "longitude": 106.3601,
        "offset_minutes": 90,
        "is_active": true
      }
    ]
  },
  {
    "origin": "TP. Hồ Chí Minh",
    "destination": "Bến Tre",
    "distance_km": 85,
    "estimated_minutes": 120,
    "is_active": true,
    "route_stops": [
      {
        "stop_order": 100,
        "stop_type": "pickup",
        "location": "Bến xe Miền Tây",
        "address": "Kinh Dương Vương, Bình Tân, TP.HCM",
        "latitude": 10.7379,
        "longitude": 106.6063,
        "offset_minutes": 0,
        "is_active": true
      },
      {
        "stop_order": 200,
        "stop_type": "dropoff",
        "location": "Bến xe Bến Tre",
        "address": "Đồng Khởi, TP. Bến Tre",
        "latitude": 10.2433,
        "longitude": 106.3755,
        "offset_minutes": 120,
        "is_active": true
      }
    ]
  },
  {
    "origin": "TP. Hồ Chí Minh",
    "destination": "Trà Vinh",
    "distance_km": 135,
    "estimated_minutes": 180,
    "is_active": true,
    "route_stops": [
      {
        "stop_order": 100,
        "stop_type": "pickup",
        "location": "Bến xe Miền Tây",
        "address": "Kinh Dương Vương, Bình Tân, TP.HCM",
        "latitude": 10.7379,
        "longitude": 106.6063,
        "offset_minutes": 0,
        "is_active": true
      },
      {
        "stop_order": 200,
        "stop_type": "dropoff",
        "location": "Bến xe Trà Vinh",
        "address": "Nguyễn Đáng, TP. Trà Vinh",
        "latitude": 9.9347,
        "longitude": 106.342,
        "offset_minutes": 180,
        "is_active": true
      }
    ]
  },
  {
    "origin": "TP. Hồ Chí Minh",
    "destination": "Vĩnh Long",
    "distance_km": 135,
    "estimated_minutes": 180,
    "is_active": true,
    "route_stops": [
      {
        "stop_order": 100,
        "stop_type": "pickup",
        "location": "Bến xe Miền Tây",
        "address": "Kinh Dương Vương, Bình Tân, TP.HCM",
        "latitude": 10.7379,
        "longitude": 106.6063,
        "offset_minutes": 0,
        "is_active": true
      },
      {
        "stop_order": 200,
        "stop_type": "dropoff",
        "location": "Bến xe Vĩnh Long",
        "address": "Phạm Thái Bường, TP. Vĩnh Long",
        "latitude": 10.2397,
        "longitude": 105.9571,
        "offset_minutes": 180,
        "is_active": true
      }
    ]
  },
  {
    "origin": "TP. Hồ Chí Minh",
    "destination": "Sóc Trăng",
    "distance_km": 231,
    "estimated_minutes": 300,
    "is_active": true,
    "route_stops": [
      {
        "stop_order": 100,
        "stop_type": "pickup",
        "location": "Bến xe Miền Tây",
        "address": "Kinh Dương Vương, Bình Tân, TP.HCM",
        "latitude": 10.7379,
        "longitude": 106.6063,
        "offset_minutes": 0,
        "is_active": true
      },
      {
        "stop_order": 200,
        "stop_type": "both",
        "location": "Bến xe Cần Thơ",
        "address": "Nguyễn Trãi, Ninh Kiều, Cần Thơ",
        "latitude": 10.0452,
        "longitude": 105.7469,
        "offset_minutes": 180,
        "is_active": true
      },
      {
        "stop_order": 300,
        "stop_type": "dropoff",
        "location": "Bến xe Sóc Trăng",
        "address": "Trần Hưng Đạo, TP. Sóc Trăng",
        "latitude": 9.6025,
        "longitude": 105.9739,
        "offset_minutes": 300,
        "is_active": true
      }
    ]
  },
  {
    "origin": "TP. Hồ Chí Minh",
    "destination": "Kiên Giang",
    "distance_km": 250,
    "estimated_minutes": 330,
    "is_active": true,
    "route_stops": [
      {
        "stop_order": 100,
        "stop_type": "pickup",
        "location": "Bến xe Miền Tây",
        "address": "Kinh Dương Vương, Bình Tân, TP.HCM",
        "latitude": 10.7379,
        "longitude": 106.6063,
        "offset_minutes": 0,
        "is_active": true
      },
      {
        "stop_order": 200,
        "stop_type": "both",
        "location": "Bến xe Cần Thơ",
        "address": "Nguyễn Trãi, Ninh Kiều, Cần Thơ",
        "latitude": 10.0452,
        "longitude": 105.7469,
        "offset_minutes": 180,
        "is_active": true
      },
      {
        "stop_order": 300,
        "stop_type": "dropoff",
        "location": "Bến xe Rạch Giá",
        "address": "Nguyễn Trung Trực, TP. Rạch Giá, Kiên Giang",
        "latitude": 10.0125,
        "longitude": 105.0808,
        "offset_minutes": 330,
        "is_active": true
      }
    ]
  },
  {
    "origin": "Cần Thơ",
    "destination": "Sóc Trăng",
    "distance_km": 62,
    "estimated_minutes": 90,
    "is_active": true,
    "route_stops": [
      {
        "stop_order": 100,
        "stop_type": "pickup",
        "location": "Bến xe Cần Thơ",
        "address": "Nguyễn Trãi, Ninh Kiều, Cần Thơ",
        "latitude": 10.0452,
        "longitude": 105.7469,
        "offset_minutes": 0,
        "is_active": true
      },
      {
        "stop_order": 200,
        "stop_type": "dropoff",
        "location": "Bến xe Sóc Trăng",
        "address": "Trần Hưng Đạo, TP. Sóc Trăng",
        "latitude": 9.6025,
        "longitude": 105.9739,
        "offset_minutes": 90,
        "is_active": true
      }
    ]
  },
  {
    "origin": "Cần Thơ",
    "destination": "Kiên Giang",
    "distance_km": 117,
    "estimated_minutes": 150,
    "is_active": true,
    "route_stops": [
      {
        "stop_order": 100,
        "stop_type": "pickup",
        "location": "Bến xe Cần Thơ",
        "address": "Nguyễn Trãi, Ninh Kiều, Cần Thơ",
        "latitude": 10.0452,
        "longitude": 105.7469,
        "offset_minutes": 0,
        "is_active": true
      },
      {
        "stop_order": 200,
        "stop_type": "dropoff",
        "location": "Bến xe Rạch Giá",
        "address": "Nguyễn Trung Trực, TP. Rạch Giá, Kiên Giang",
        "latitude": 10.0125,
        "longitude": 105.0808,
        "offset_minutes": 150,
        "is_active": true
      }
    ]
  },
  {
    "origin": "Cần Thơ",
    "destination": "Vĩnh Long",
    "distance_km": 33,
    "estimated_minutes": 45,
    "is_active": true,
    "route_stops": [
      {
        "stop_order": 100,
        "stop_type": "pickup",
        "location": "Bến xe Cần Thơ",
        "address": "Nguyễn Trãi, Ninh Kiều, Cần Thơ",
        "latitude": 10.0452,
        "longitude": 105.7469,
        "offset_minutes": 0,
        "is_active": true
      },
      {
        "stop_order": 200,
        "stop_type": "dropoff",
        "location": "Bến xe Vĩnh Long",
        "address": "Phạm Thái Bường, TP. Vĩnh Long",
        "latitude": 10.2397,
        "longitude": 105.9571,
        "offset_minutes": 45,
        "is_active": true
      }
    ]
  },
  {
    "origin": "Nha Trang",
    "destination": "Đà Lạt",
    "distance_km": 140,
    "estimated_minutes": 180,
    "is_active": true,
    "route_stops": [
      {
        "stop_order": 100,
        "stop_type": "pickup",
        "location": "Bến xe Nha Trang",
        "address": "23 Tháng 10, TP. Nha Trang",
        "latitude": 12.2388,
        "longitude": 109.1967,
        "offset_minutes": 0,
        "is_active": true
      },
      {
        "stop_order": 200,
        "stop_type": "dropoff",
        "location": "Bến xe Đà Lạt",
        "address": "Tô Hiến Thành, TP. Đà Lạt, Lâm Đồng",
        "latitude": 11.9404,
        "longitude": 108.4583,
        "offset_minutes": 180,
        "is_active": true
      }
    ]
  },
  {
    "origin": "Nha Trang",
    "destination": "Phú Yên",
    "distance_km": 105,
    "estimated_minutes": 120,
    "is_active": true,
    "route_stops": [
      {
        "stop_order": 100,
        "stop_type": "pickup",
        "location": "Bến xe Nha Trang",
        "address": "23 Tháng 10, TP. Nha Trang",
        "latitude": 12.2388,
        "longitude": 109.1967,
        "offset_minutes": 0,
        "is_active": true
      },
      {
        "stop_order": 200,
        "stop_type": "dropoff",
        "location": "Bến xe Tuy Hòa",
        "address": "Trần Hưng Đạo, TP. Tuy Hòa, Phú Yên",
        "latitude": 13.0948,
        "longitude": 109.2958,
        "offset_minutes": 120,
        "is_active": true
      }
    ]
  },
  {
    "origin": "Đà Lạt",
    "destination": "Lâm Đồng",
    "distance_km": 25,
    "estimated_minutes": 40,
    "is_active": true,
    "route_stops": [
      {
        "stop_order": 100,
        "stop_type": "pickup",
        "location": "Bến xe Đà Lạt",
        "address": "Tô Hiến Thành, TP. Đà Lạt, Lâm Đồng",
        "latitude": 11.9404,
        "longitude": 108.4583,
        "offset_minutes": 0,
        "is_active": true
      },
      {
        "stop_order": 200,
        "stop_type": "dropoff",
        "location": "Bến xe Bảo Lộc",
        "address": "Trần Phú, TP. Bảo Lộc, Lâm Đồng",
        "latitude": 11.548,
        "longitude": 107.8078,
        "offset_minutes": 40,
        "is_active": true
      }
    ]
  },
  {
    "origin": "Đà Lạt",
    "destination": "Gia Lai",
    "distance_km": 200,
    "estimated_minutes": 240,
    "is_active": true,
    "route_stops": [
      {
        "stop_order": 100,
        "stop_type": "pickup",
        "location": "Bến xe Đà Lạt",
        "address": "Tô Hiến Thành, TP. Đà Lạt, Lâm Đồng",
        "latitude": 11.9404,
        "longitude": 108.4583,
        "offset_minutes": 0,
        "is_active": true
      },
      {
        "stop_order": 200,
        "stop_type": "dropoff",
        "location": "Bến xe Pleiku",
        "address": "Hùng Vương, TP. Pleiku, Gia Lai",
        "latitude": 13.9833,
        "longitude": 108.0,
        "offset_minutes": 240,
        "is_active": true
      }
    ]
  },
  {
    "origin": "Hải Phòng",
    "destination": "Quảng Ninh",
    "distance_km": 55,
    "estimated_minutes": 75,
    "is_active": true,
    "route_stops": [
      {
        "stop_order": 100,
        "stop_type": "pickup",
        "location": "Bến xe Niệm Nghĩa",
        "address": "Lê Thánh Tông, Ngô Quyền, Hải Phòng",
        "latitude": 20.8449,
        "longitude": 106.6881,
        "offset_minutes": 0,
        "is_active": true
      },
      {
        "stop_order": 200,
        "stop_type": "dropoff",
        "location": "Bến xe Bãi Cháy",
        "address": "Bãi Cháy, TP. Hạ Long, Quảng Ninh",
        "latitude": 20.9519,
        "longitude": 107.0447,
        "offset_minutes": 75,
        "is_active": true
      }
    ]
  },
  {
    "origin": "Hải Phòng",
    "destination": "Nam Định",
    "distance_km": 60,
    "estimated_minutes": 90,
    "is_active": true,
    "route_stops": [
      {
        "stop_order": 100,
        "stop_type": "pickup",
        "location": "Bến xe Niệm Nghĩa",
        "address": "Lê Thánh Tông, Ngô Quyền, Hải Phòng",
        "latitude": 20.8449,
        "longitude": 106.6881,
        "offset_minutes": 0,
        "is_active": true
      },
      {
        "stop_order": 200,
        "stop_type": "dropoff",
        "location": "Bến xe Nam Định",
        "address": "Trần Hưng Đạo, TP. Nam Định",
        "latitude": 20.4388,
        "longitude": 106.1621,
        "offset_minutes": 90,
        "is_active": true
      }
    ]
  },
  {
    "origin": "Quảng Ninh",
    "destination": "Bắc Ninh",
    "distance_km": 145,
    "estimated_minutes": 180,
    "is_active": true,
    "route_stops": [
      {
        "stop_order": 100,
        "stop_type": "pickup",
        "location": "Bến xe Bãi Cháy",
        "address": "Bãi Cháy, TP. Hạ Long, Quảng Ninh",
        "latitude": 20.9519,
        "longitude": 107.0447,
        "offset_minutes": 0,
        "is_active": true
      },
      {
        "stop_order": 200,
        "stop_type": "dropoff",
        "location": "Bến xe Bắc Ninh",
        "address": "Đường Lý Thái Tổ, TP. Bắc Ninh",
        "latitude": 21.1861,
        "longitude": 106.0763,
        "offset_minutes": 180,
        "is_active": true
      }
    ]
  },
  {
    "origin": "Nghệ An",
    "destination": "Thanh Hóa",
    "distance_km": 140,
    "estimated_minutes": 150,
    "is_active": true,
    "route_stops": [
      {
        "stop_order": 100,
        "stop_type": "pickup",
        "location": "Bến xe Vinh",
        "address": "Đường Lê Lợi, TP. Vinh, Nghệ An",
        "latitude": 18.6792,
        "longitude": 105.6813,
        "offset_minutes": 0,
        "is_active": true
      },
      {
        "stop_order": 200,
        "stop_type": "dropoff",
        "location": "Bến xe Thanh Hóa",
        "address": "Quang Trung, TP. Thanh Hóa",
        "latitude": 19.8067,
        "longitude": 105.7851,
        "offset_minutes": 150,
        "is_active": true
      }
    ]
  },
  {
    "origin": "Nghệ An",
    "destination": "Quảng Bình",
    "distance_km": 195,
    "estimated_minutes": 240,
    "is_active": true,
    "route_stops": [
      {
        "stop_order": 100,
        "stop_type": "pickup",
        "location": "Bến xe Vinh",
        "address": "Đường Lê Lợi, TP. Vinh, Nghệ An",
        "latitude": 18.6792,
        "longitude": 105.6813,
        "offset_minutes": 0,
        "is_active": true
      },
      {
        "stop_order": 200,
        "stop_type": "dropoff",
        "location": "Bến xe Đồng Hới",
        "address": "Quang Trung, TP. Đồng Hới, Quảng Bình",
        "latitude": 17.4822,
        "longitude": 106.6228,
        "offset_minutes": 240,
        "is_active": true
      }
    ]
  }
]
